{
"type": "FeatureCollection",
"name": "Urbanizaciones",
"crs": { "type": "name", "properties": { "name": "urn:ogc:def:crs:OGC:1.3:CRS84" } },
"features": [
{ "type": "Feature", "properties": { "fid": 1, "Nombre": "Victor Emilio Valdivieso" }, "geometry": { "type": "Point", "coordinates": [ -79.242087947528248, -4.013566127366967 ] } },
{ "type": "Feature", "properties": { "fid": 2, "Nombre": "Antonia Valdivieso Arias" }, "geometry": { "type": "Point", "coordinates": [ -79.233144181564512, -4.014791031953084 ] } },
{ "type": "Feature", "properties": { "fid": 3, "Nombre": "Memfis Las Rosas" }, "geometry": { "type": "Point", "coordinates": [ -79.231404148071022, -4.016511030000914 ] } },
{ "type": "Feature", "properties": { "fid": 4, "Nombre": "Cascarilla" }, "geometry": { "type": "Point", "coordinates": [ -79.2293004434529, -4.017765478031305 ] } },
{ "type": "Feature", "properties": { "fid": 5, "Nombre": "Lote Bonito" }, "geometry": { "type": "Point", "coordinates": [ -79.226898929581935, -4.014881042119065 ] } },
{ "type": "Feature", "properties": { "fid": 6, "Nombre": "Santa Inés" }, "geometry": { "type": "Point", "coordinates": [ -79.224659243033827, -4.014007640130044 ] } },
{ "type": "Feature", "properties": { "fid": 7, "Nombre": "Memfis Alto" }, "geometry": { "type": "Point", "coordinates": [ -79.230674586827178, -4.008687787129691 ] } },
{ "type": "Feature", "properties": { "fid": 8, "Nombre": "Memfis Central" }, "geometry": { "type": "Point", "coordinates": [ -79.228110868351109, -4.007702183849863 ] } },
{ "type": "Feature", "properties": { "fid": 9, "Nombre": "15 de Noviembre" }, "geometry": { "type": "Point", "coordinates": [ -79.223429709912921, -4.006655662095069 ] } },
{ "type": "Feature", "properties": { "fid": 10, "Nombre": "Memfis" }, "geometry": { "type": "Point", "coordinates": [ -79.224646485088286, -4.003918658017623 ] } },
{ "type": "Feature", "properties": { "fid": 11, "Nombre": "La Dolorosa" }, "geometry": { "type": "Point", "coordinates": [ -79.229394116548832, -4.002409709309195 ] } },
{ "type": "Feature", "properties": { "fid": 12, "Nombre": "CAPIL" }, "geometry": { "type": "Point", "coordinates": [ -79.23073845548781, -4.002174547905378 ] } },
{ "type": "Feature", "properties": { "fid": 13, "Nombre": "Ciudad Victoria" }, "geometry": { "type": "Point", "coordinates": [ -79.233140070092006, -4.001407220621306 ] } },
{ "type": "Feature", "properties": { "fid": 14, "Nombre": "CAPIL" }, "geometry": { "type": "Point", "coordinates": [ -79.230673785644854, -3.999922839141203 ] } },
{ "type": "Feature", "properties": { "fid": 15, "Nombre": "San Francisco de Obrapía" }, "geometry": { "type": "Point", "coordinates": [ -79.226363930071741, -4.000375729812353 ] } },
{ "type": "Feature", "properties": { "fid": 16, "Nombre": "Santa Bárbara" }, "geometry": { "type": "Point", "coordinates": [ -79.223836587546458, -3.997187946286624 ] } },
{ "type": "Feature", "properties": { "fid": 17, "Nombre": "Acacias" }, "geometry": { "type": "Point", "coordinates": [ -79.217944300969435, -3.999313859460647 ] } },
{ "type": "Feature", "properties": { "fid": 18, "Nombre": "Policía de Menfis" }, "geometry": { "type": "Point", "coordinates": [ -79.220369107100581, -4.003541533740919 ] } },
{ "type": "Feature", "properties": { "fid": 19, "Nombre": "El Paraíso de Menfis" }, "geometry": { "type": "Point", "coordinates": [ -79.22048081298, -4.006705405712096 ] } },
{ "type": "Feature", "properties": { "fid": 20, "Nombre": "Ciudad de Loja, Huertos Familiares" }, "geometry": { "type": "Point", "coordinates": [ -79.215576803915226, -4.00899925695021 ] } },
{ "type": "Feature", "properties": { "fid": 21, "Nombre": "Pío Jaramillo" }, "geometry": { "type": "Point", "coordinates": [ -79.214331804778098, -4.005260926314849 ] } },
{ "type": "Feature", "properties": { "fid": 22, "Nombre": "Peñón del Oeste" }, "geometry": { "type": "Point", "coordinates": [ -79.210642988737362, -4.005863328735552 ] } },
{ "type": "Feature", "properties": { "fid": 23, "Nombre": "San Pedro" }, "geometry": { "type": "Point", "coordinates": [ -79.207974820981221, -4.005580333203365 ] } },
{ "type": "Feature", "properties": { "fid": 24, "Nombre": "Tebaida" }, "geometry": { "type": "Point", "coordinates": [ -79.204159374741138, -4.011254639909104 ] } },
{ "type": "Feature", "properties": { "fid": 25, "Nombre": "Policía Metropotinana" }, "geometry": { "type": "Point", "coordinates": [ -79.207927198491276, -4.011645905202777 ] } },
{ "type": "Feature", "properties": { "fid": 26, "Nombre": "Prados del Bosque" }, "geometry": { "type": "Point", "coordinates": [ -79.212768209790042, -4.014791488383953 ] } },
{ "type": "Feature", "properties": { "fid": 27, "Nombre": "Primero de Noviembre" }, "geometry": { "type": "Point", "coordinates": [ -79.213980654685258, -4.015435961169733 ] } },
{ "type": "Feature", "properties": { "fid": 28, "Nombre": "Bellmonte" }, "geometry": { "type": "Point", "coordinates": [ -79.21551674681146, -4.014010730900875 ] } },
{ "type": "Feature", "properties": { "fid": 29, "Nombre": "Vilanova" }, "geometry": { "type": "Point", "coordinates": [ -79.216160633500692, -4.01600968556354 ] } },
{ "type": "Feature", "properties": { "fid": 30, "Nombre": "Santa Teresita" }, "geometry": { "type": "Point", "coordinates": [ -79.205835049372908, -4.016112101117331 ] } },
{ "type": "Feature", "properties": { "fid": 31, "Nombre": "Bellaflor" }, "geometry": { "type": "Point", "coordinates": [ -79.201889000321984, -4.014702821555463 ] } },
{ "type": "Feature", "properties": { "fid": 32, "Nombre": "Geranios" }, "geometry": { "type": "Point", "coordinates": [ -79.202175532234691, -4.017405686416041 ] } },
{ "type": "Feature", "properties": { "fid": 33, "Nombre": "Ayuda Mutua Etapa II" }, "geometry": { "type": "Point", "coordinates": [ -79.19950305257656, -4.017227518116089 ] } },
{ "type": "Feature", "properties": { "fid": 34, "Nombre": "Pradera" }, "geometry": { "type": "Point", "coordinates": [ -79.1978590191802, -4.01337915099919 ] } },
{ "type": "Feature", "properties": { "fid": 35, "Nombre": "Paseo del Bosque" }, "geometry": { "type": "Point", "coordinates": [ -79.195364425702053, -4.014664114358974 ] } },
{ "type": "Feature", "properties": { "fid": 36, "Nombre": "Colinas del Pucará" }, "geometry": { "type": "Point", "coordinates": [ -79.195384460701007, -4.010447862562819 ] } },
{ "type": "Feature", "properties": { "fid": 37, "Nombre": "Jefatura de Salud" }, "geometry": { "type": "Point", "coordinates": [ -79.198568759676022, -4.008483752566036 ] } },
{ "type": "Feature", "properties": { "fid": 38, "Nombre": "San Vicente Rocafuerte" }, "geometry": { "type": "Point", "coordinates": [ -79.212793785618317, -3.996628004031212 ] } },
{ "type": "Feature", "properties": { "fid": 39, "Nombre": "El Dorado" }, "geometry": { "type": "Point", "coordinates": [ -79.210572916230419, -3.995671588015844 ] } },
{ "type": "Feature", "properties": { "fid": 40, "Nombre": "Balcón Lojano" }, "geometry": { "type": "Point", "coordinates": [ -79.208746371129365, -3.997655482988556 ] } },
{ "type": "Feature", "properties": { "fid": 41, "Nombre": "8 de Diciembre" }, "geometry": { "type": "Point", "coordinates": [ -79.211034286020222, -3.99130728115098 ] } },
{ "type": "Feature", "properties": { "fid": 42, "Nombre": "San VIcente" }, "geometry": { "type": "Point", "coordinates": [ -79.210663578896387, -3.990486531666155 ] } },
{ "type": "Feature", "properties": { "fid": 43, "Nombre": "San José Alto" }, "geometry": { "type": "Point", "coordinates": [ -79.208547948609876, -3.988318889379254 ] } },
{ "type": "Feature", "properties": { "fid": 44, "Nombre": "SIMEGO" }, "geometry": { "type": "Point", "coordinates": [ -79.207585274739685, -3.988602241912514 ] } },
{ "type": "Feature", "properties": { "fid": 45, "Nombre": "Las Palmeras" }, "geometry": { "type": "Point", "coordinates": [ -79.206365646757945, -3.98913694485673 ] } },
{ "type": "Feature", "properties": { "fid": 46, "Nombre": "La Alborada" }, "geometry": { "type": "Point", "coordinates": [ -79.213295849517749, -3.987167527727077 ] } },
{ "type": "Feature", "properties": { "fid": 47, "Nombre": "Shushuhuayco" }, "geometry": { "type": "Point", "coordinates": [ -79.215154072045451, -3.986977534974598 ] } },
{ "type": "Feature", "properties": { "fid": 48, "Nombre": "Comuna del Plateado - Borja" }, "geometry": { "type": "Point", "coordinates": [ -79.218214348492253, -3.981967917504456 ] } },
{ "type": "Feature", "properties": { "fid": 49, "Nombre": "Alumbre" }, "geometry": { "type": "Point", "coordinates": [ -79.224477361373658, -3.984184230215542 ] } },
{ "type": "Feature", "properties": { "fid": 50, "Nombre": "Belén - Consacola" }, "geometry": { "type": "Point", "coordinates": [ -79.218614888861524, -3.977134078538648 ] } },
{ "type": "Feature", "properties": { "fid": 51, "Nombre": "Colinas de Rondonia" }, "geometry": { "type": "Point", "coordinates": [ -79.221199813030154, -3.975073875811716 ] } },
{ "type": "Feature", "properties": { "fid": 52, "Nombre": "Colinas de Belén" }, "geometry": { "type": "Point", "coordinates": [ -79.225910872742389, -3.976343061261315 ] } },
{ "type": "Feature", "properties": { "fid": 53, "Nombre": "Bolacache" }, "geometry": { "type": "Point", "coordinates": [ -79.222794393467282, -3.971193083379588 ] } },
{ "type": "Feature", "properties": { "fid": 54, "Nombre": "25 de Diciembre" }, "geometry": { "type": "Point", "coordinates": [ -79.22185843608689, -3.966991562067624 ] } },
{ "type": "Feature", "properties": { "fid": 55, "Nombre": "Jaime Roldós" }, "geometry": { "type": "Point", "coordinates": [ -79.225514291474326, -3.964239583202446 ] } },
{ "type": "Feature", "properties": { "fid": 56, "Nombre": "La Primavera" }, "geometry": { "type": "Point", "coordinates": [ -79.219017376586606, -3.961320560378224 ] } },
{ "type": "Feature", "properties": { "fid": 57, "Nombre": "Colinas del Norte" }, "geometry": { "type": "Point", "coordinates": [ -79.218468028768299, -3.962703885317534 ] } },
{ "type": "Feature", "properties": { "fid": 58, "Nombre": "Condominios San José" }, "geometry": { "type": "Point", "coordinates": [ -79.216825448472846, -3.963810198485985 ] } },
{ "type": "Feature", "properties": { "fid": 59, "Nombre": "Choferes La Banda" }, "geometry": { "type": "Point", "coordinates": [ -79.216945221500737, -3.960998696938935 ] } },
{ "type": "Feature", "properties": { "fid": 60, "Nombre": "Plaza Grande" }, "geometry": { "type": "Point", "coordinates": [ -79.214670620000035, -3.963079745625798 ] } },
{ "type": "Feature", "properties": { "fid": 61, "Nombre": "18 de Noviembre" }, "geometry": { "type": "Point", "coordinates": [ -79.211116217407096, -3.962324510404727 ] } },
{ "type": "Feature", "properties": { "fid": 62, "Nombre": "Estancia del Río II" }, "geometry": { "type": "Point", "coordinates": [ -79.212641665096811, -3.960703940223944 ] } },
{ "type": "Feature", "properties": { "fid": 63, "Nombre": "Rosita Witt de Mahuad" }, "geometry": { "type": "Point", "coordinates": [ -79.209371519089913, -3.960048678687435 ] } },
{ "type": "Feature", "properties": { "fid": 64, "Nombre": "Cataluña" }, "geometry": { "type": "Point", "coordinates": [ -79.209791543790885, -3.95851477923992 ] } },
{ "type": "Feature", "properties": { "fid": 65, "Nombre": "Sierra Dorada" }, "geometry": { "type": "Point", "coordinates": [ -79.211153066407959, -3.95836583248292 ] } },
{ "type": "Feature", "properties": { "fid": 66, "Nombre": "Tello Espinosa" }, "geometry": { "type": "Point", "coordinates": [ -79.213672945670154, -3.958533026176701 ] } },
{ "type": "Feature", "properties": { "fid": 67, "Nombre": "Estancia del Río" }, "geometry": { "type": "Point", "coordinates": [ -79.214955981643726, -3.955956643085183 ] } },
{ "type": "Feature", "properties": { "fid": 68, "Nombre": "Parkenor" }, "geometry": { "type": "Point", "coordinates": [ -79.210494251885009, -3.95550931519187 ] } },
{ "type": "Feature", "properties": { "fid": 69, "Nombre": "Altos del Valle" }, "geometry": { "type": "Point", "coordinates": [ -79.211453936738721, -3.953716627894456 ] } },
{ "type": "Feature", "properties": { "fid": 70, "Nombre": "Administradores" }, "geometry": { "type": "Point", "coordinates": [ -79.208342279276366, -3.954744142837414 ] } },
{ "type": "Feature", "properties": { "fid": 71, "Nombre": "Bellamaría" }, "geometry": { "type": "Point", "coordinates": [ -79.213453287493962, -3.952246926836259 ] } },
{ "type": "Feature", "properties": { "fid": 72, "Nombre": "Bellamaría" }, "geometry": { "type": "Point", "coordinates": [ -79.217571294254299, -3.952519368290591 ] } },
{ "type": "Feature", "properties": { "fid": 73, "Nombre": "Pucacocha" }, "geometry": { "type": "Point", "coordinates": [ -79.223587417234512, -3.948773369430068 ] } },
{ "type": "Feature", "properties": { "fid": 74, "Nombre": "Apangora" }, "geometry": { "type": "Point", "coordinates": [ -79.226743828362615, -3.946308889857206 ] } },
{ "type": "Feature", "properties": { "fid": 75, "Nombre": "Motupe Milagro" }, "geometry": { "type": "Point", "coordinates": [ -79.231488037326898, -3.942720482531229 ] } },
{ "type": "Feature", "properties": { "fid": 76, "Nombre": "La Concepción" }, "geometry": { "type": "Point", "coordinates": [ -79.236899586821792, -3.94470825808841 ] } },
{ "type": "Feature", "properties": { "fid": 77, "Nombre": "Monte de los Olivos" }, "geometry": { "type": "Point", "coordinates": [ -79.227370998623513, -3.938789115329287 ] } },
{ "type": "Feature", "properties": { "fid": 78, "Nombre": "Sauces Norte" }, "geometry": { "type": "Point", "coordinates": [ -79.224586309180353, -3.939679297492666 ] } },
{ "type": "Feature", "properties": { "fid": 79, "Nombre": "El Cisne" }, "geometry": { "type": "Point", "coordinates": [ -79.224188368432365, -3.941448073620005 ] } },
{ "type": "Feature", "properties": { "fid": 80, "Nombre": "Parque Industrial" }, "geometry": { "type": "Point", "coordinates": [ -79.217484869123879, -3.946805590365244 ] } },
{ "type": "Feature", "properties": { "fid": 81, "Nombre": "Urbanización La Paz" }, "geometry": { "type": "Point", "coordinates": [ -79.205666688771259, -3.96570795822542 ] } },
{ "type": "Feature", "properties": { "fid": 82, "Nombre": "Estancia Norte" }, "geometry": { "type": "Point", "coordinates": [ -79.204100035406427, -3.966852448934033 ] } },
{ "type": "Feature", "properties": { "fid": 83, "Nombre": "Molinos UTPL" }, "geometry": { "type": "Point", "coordinates": [ -79.202078657101637, -3.96884234185088 ] } },
{ "type": "Feature", "properties": { "fid": 84, "Nombre": "Electricista" }, "geometry": { "type": "Point", "coordinates": [ -79.198478294834089, -3.969108628626483 ] } },
{ "type": "Feature", "properties": { "fid": 85, "Nombre": "El Paraíso" }, "geometry": { "type": "Point", "coordinates": [ -79.197400653081417, -3.967597532774908 ] } },
{ "type": "Feature", "properties": { "fid": 86, "Nombre": "Río Blanco" }, "geometry": { "type": "Point", "coordinates": [ -79.195618145909222, -3.968804203293332 ] } },
{ "type": "Feature", "properties": { "fid": 87, "Nombre": "Jipiro Mirador" }, "geometry": { "type": "Point", "coordinates": [ -79.196477119099114, -3.965092526860454 ] } },
{ "type": "Feature", "properties": { "fid": 88, "Nombre": "La LIbertad" }, "geometry": { "type": "Point", "coordinates": [ -79.194494981385702, -3.965216051425627 ] } },
{ "type": "Feature", "properties": { "fid": 89, "Nombre": "Chinguilanchi" }, "geometry": { "type": "Point", "coordinates": [ -79.19996599781976, -3.964996868686896 ] } },
{ "type": "Feature", "properties": { "fid": 90, "Nombre": "Asociación de Profesores" }, "geometry": { "type": "Point", "coordinates": [ -79.20704725053001, -3.968076966875917 ] } },
{ "type": "Feature", "properties": { "fid": 91, "Nombre": "El Portal" }, "geometry": { "type": "Point", "coordinates": [ -79.20584705058549, -3.968665371911607 ] } },
{ "type": "Feature", "properties": { "fid": 92, "Nombre": "Nueva Granada" }, "geometry": { "type": "Point", "coordinates": [ -79.205713341410217, -3.971701224487761 ] } },
{ "type": "Feature", "properties": { "fid": 93, "Nombre": "Turunuma Empleados Municipales" }, "geometry": { "type": "Point", "coordinates": [ -79.208816547075116, -3.974601798267313 ] } },
{ "type": "Feature", "properties": { "fid": 94, "Nombre": "Asociación 9 de Octubre" }, "geometry": { "type": "Point", "coordinates": [ -79.213277001218927, -3.97635274075432 ] } },
{ "type": "Feature", "properties": { "fid": 95, "Nombre": "Cazadores de los ríos" }, "geometry": { "type": "Point", "coordinates": [ -79.214139606648416, -3.973572305979018 ] } },
{ "type": "Feature", "properties": { "fid": 96, "Nombre": "Graciela Eguiguren" }, "geometry": { "type": "Point", "coordinates": [ -79.209154508402179, -3.983117389493685 ] } },
{ "type": "Feature", "properties": { "fid": 97, "Nombre": "El Bosque" }, "geometry": { "type": "Point", "coordinates": [ -79.207952143456794, -3.981726958566865 ] } },
{ "type": "Feature", "properties": { "fid": 98, "Nombre": "Lojana de Turismo" }, "geometry": { "type": "Point", "coordinates": [ -79.207989305371612, -3.984585444393944 ] } },
{ "type": "Feature", "properties": { "fid": 99, "Nombre": "Fabiola" }, "geometry": { "type": "Point", "coordinates": [ -79.204635325581336, -3.983578602906334 ] } },
{ "type": "Feature", "properties": { "fid": 100, "Nombre": "Ciudadela del Maestro" }, "geometry": { "type": "Point", "coordinates": [ -79.203393999113175, -3.981046150142192 ] } },
{ "type": "Feature", "properties": { "fid": 101, "Nombre": "Sindicato de Choferes Turunuma" }, "geometry": { "type": "Point", "coordinates": [ -79.210262603971913, -3.975790773709656 ] } },
{ "type": "Feature", "properties": { "fid": 102, "Nombre": "Isaac Ordóñez" }, "geometry": { "type": "Point", "coordinates": [ -79.199439195462844, -3.984375428517148 ] } },
{ "type": "Feature", "properties": { "fid": 103, "Nombre": "San Cayetano Bajo" }, "geometry": { "type": "Point", "coordinates": [ -79.196974149216771, -3.980339765539433 ] } },
{ "type": "Feature", "properties": { "fid": 104, "Nombre": "Eguiguren Suárez" }, "geometry": { "type": "Point", "coordinates": [ -79.194340147500043, -3.977736002431076 ] } },
{ "type": "Feature", "properties": { "fid": 105, "Nombre": "SAMANA" }, "geometry": { "type": "Point", "coordinates": [ -79.196609676562858, -3.975044841082796 ] } },
{ "type": "Feature", "properties": { "fid": 106, "Nombre": "Choferes San Cayetano Alto Etapa I" }, "geometry": { "type": "Point", "coordinates": [ -79.19601377820932, -3.988093989472143 ] } },
{ "type": "Feature", "properties": { "fid": 107, "Nombre": "Choferes San Cayetano Alto Etapa II" }, "geometry": { "type": "Point", "coordinates": [ -79.192770288391159, -3.988135540115394 ] } },
{ "type": "Feature", "properties": { "fid": 108, "Nombre": "Ciudadela Zamora" }, "geometry": { "type": "Point", "coordinates": [ -79.198570091934812, -3.993101850995387 ] } },
{ "type": "Feature", "properties": { "fid": 109, "Nombre": "Santa Rosa" }, "geometry": { "type": "Point", "coordinates": [ -79.198325132415277, -3.99109959391119 ] } },
{ "type": "Feature", "properties": { "fid": 110, "Nombre": "El Rincón" }, "geometry": { "type": "Point", "coordinates": [ -79.196031723667716, -3.995073854575102 ] } },
{ "type": "Feature", "properties": { "fid": 111, "Nombre": "ATAMER" }, "geometry": { "type": "Point", "coordinates": [ -79.194264791621492, -3.993994613014211 ] } },
{ "type": "Feature", "properties": { "fid": 112, "Nombre": "Colegio de Arquitectos" }, "geometry": { "type": "Point", "coordinates": [ -79.193214623749213, -3.991177636749299 ] } },
{ "type": "Feature", "properties": { "fid": 113, "Nombre": "El Calvario" }, "geometry": { "type": "Point", "coordinates": [ -79.186464254750547, -3.991767338720915 ] } },
{ "type": "Feature", "properties": { "fid": 114, "Nombre": "Las Palmeras" }, "geometry": { "type": "Point", "coordinates": [ -79.191094287446973, -3.994875280433076 ] } },
{ "type": "Feature", "properties": { "fid": 115, "Nombre": "Santa Mariana de Jesús" }, "geometry": { "type": "Point", "coordinates": [ -79.193853781183208, -3.997497581733794 ] } },
{ "type": "Feature", "properties": { "fid": 116, "Nombre": "El Prado" }, "geometry": { "type": "Point", "coordinates": [ -79.194462530813013, -3.996203095698263 ] } },
{ "type": "Feature", "properties": { "fid": 117, "Nombre": "Antiguo Cementerio del Valle" }, "geometry": { "type": "Point", "coordinates": [ -79.199614776222106, -3.977707996427347 ] } },
{ "type": "Feature", "properties": { "fid": 118, "Nombre": "Alcazar de Jipiro" }, "geometry": { "type": "Point", "coordinates": [ -79.194603596713151, -3.971199503690482 ] } },
{ "type": "Feature", "properties": { "fid": 119, "Nombre": "Rivero de Jipiro" }, "geometry": { "type": "Point", "coordinates": [ -79.195810647491996, -3.971251968901593 ] } },
{ "type": "Feature", "properties": { "fid": 120, "Nombre": "Jipiro Alto" }, "geometry": { "type": "Point", "coordinates": [ -79.194089063517325, -3.968721111790716 ] } },
{ "type": "Feature", "properties": { "fid": 121, "Nombre": "Chorrillos" }, "geometry": { "type": "Point", "coordinates": [ -79.196771179607993, -4.003869151785944 ] } },
{ "type": "Feature", "properties": { "fid": 122, "Nombre": "La Estancia" }, "geometry": { "type": "Point", "coordinates": [ -79.189442160269977, -4.003282242717069 ] } },
{ "type": "Feature", "properties": { "fid": 123, "Nombre": "EQUIPSA" }, "geometry": { "type": "Point", "coordinates": [ -79.187027486229667, -4.001324769992613 ] } },
{ "type": "Feature", "properties": { "fid": 124, "Nombre": "Precaristas Norte" }, "geometry": { "type": "Point", "coordinates": [ -79.185624402108019, -4.003690699166157 ] } },
{ "type": "Feature", "properties": { "fid": 125, "Nombre": "Precaristas Sur" }, "geometry": { "type": "Point", "coordinates": [ -79.18430700892614, -4.010261789920094 ] } },
{ "type": "Feature", "properties": { "fid": 126, "Nombre": "Zamora Huayco" }, "geometry": { "type": "Point", "coordinates": [ -79.186754698545542, -4.006723612029446 ] } },
{ "type": "Feature", "properties": { "fid": 127, "Nombre": "Electricista II" }, "geometry": { "type": "Point", "coordinates": [ -79.203723705991223, -4.020862758145356 ] } },
{ "type": "Feature", "properties": { "fid": 128, "Nombre": "Los Rosales" }, "geometry": { "type": "Point", "coordinates": [ -79.200989076797484, -4.020679388954507 ] } },
{ "type": "Feature", "properties": { "fid": 129, "Nombre": "Herminia Samaniego" }, "geometry": { "type": "Point", "coordinates": [ -79.201031292659209, -4.018503286732393 ] } },
{ "type": "Feature", "properties": { "fid": 130, "Nombre": "Ayuda Mutua" }, "geometry": { "type": "Point", "coordinates": [ -79.197174984337167, -4.018544774316807 ] } },
{ "type": "Feature", "properties": { "fid": 131, "Nombre": "El Rosal" }, "geometry": { "type": "Point", "coordinates": [ -79.197247185180402, -4.024953434692383 ] } },
{ "type": "Feature", "properties": { "fid": 132, "Nombre": "PROURVI III" }, "geometry": { "type": "Point", "coordinates": [ -79.201447209543332, -4.026572477510814 ] } },
{ "type": "Feature", "properties": { "fid": 133, "Nombre": "Jardines del Sur" }, "geometry": { "type": "Point", "coordinates": [ -79.205623586441021, -4.026702353940739 ] } },
{ "type": "Feature", "properties": { "fid": 134, "Nombre": "PROURVI I" }, "geometry": { "type": "Point", "coordinates": [ -79.20779767325007, -4.024449247142232 ] } },
{ "type": "Feature", "properties": { "fid": 135, "Nombre": "Zarzas II" }, "geometry": { "type": "Point", "coordinates": [ -79.208973895294761, -4.025417374158155 ] } },
{ "type": "Feature", "properties": { "fid": 136, "Nombre": "Sol de los Andes" }, "geometry": { "type": "Point", "coordinates": [ -79.211832834373851, -4.0273214040448 ] } },
{ "type": "Feature", "properties": { "fid": 137, "Nombre": "Julio Eguiguren" }, "geometry": { "type": "Point", "coordinates": [ -79.213983490130346, -4.032812810386065 ] } },
{ "type": "Feature", "properties": { "fid": 138, "Nombre": "11 de Julio" }, "geometry": { "type": "Point", "coordinates": [ -79.211054271171605, -4.031490332344667 ] } },
{ "type": "Feature", "properties": { "fid": 139, "Nombre": "Héroes del Cenepa" }, "geometry": { "type": "Point", "coordinates": [ -79.208396602618834, -4.030362761678529 ] } },
{ "type": "Feature", "properties": { "fid": 140, "Nombre": "Los Alisos" }, "geometry": { "type": "Point", "coordinates": [ -79.203544590171902, -4.030834797615539 ] } },
{ "type": "Feature", "properties": { "fid": 141, "Nombre": "La Condamine" }, "geometry": { "type": "Point", "coordinates": [ -79.20205113439394, -4.031532477346894 ] } },
{ "type": "Feature", "properties": { "fid": 142, "Nombre": "San Isidro" }, "geometry": { "type": "Point", "coordinates": [ -79.201189901243623, -4.029554774652183 ] } },
{ "type": "Feature", "properties": { "fid": 143, "Nombre": "Ciudad de Loja" }, "geometry": { "type": "Point", "coordinates": [ -79.205662748240314, -4.03503133044667 ] } },
{ "type": "Feature", "properties": { "fid": 144, "Nombre": "PROURVI II" }, "geometry": { "type": "Point", "coordinates": [ -79.207517940894775, -4.034633913823157 ] } },
{ "type": "Feature", "properties": { "fid": 145, "Nombre": "Las Ramblas" }, "geometry": { "type": "Point", "coordinates": [ -79.212583638290965, -4.035094242063794 ] } },
{ "type": "Feature", "properties": { "fid": 146, "Nombre": "Julio Ordóñez" }, "geometry": { "type": "Point", "coordinates": [ -79.205805367775, -4.040316742309884 ] } },
{ "type": "Feature", "properties": { "fid": 147, "Nombre": "Punzara II" }, "geometry": { "type": "Point", "coordinates": [ -79.203590620480966, -4.03923228258917 ] } },
{ "type": "Feature", "properties": { "fid": 148, "Nombre": "La Laguna" }, "geometry": { "type": "Point", "coordinates": [ -79.203700704756145, -4.042045068580319 ] } },
{ "type": "Feature", "properties": { "fid": 149, "Nombre": "CACEFCA" }, "geometry": { "type": "Point", "coordinates": [ -79.21166353711665, -4.021687019170341 ] } },
{ "type": "Feature", "properties": { "fid": 150, "Nombre": "Zarzas I" }, "geometry": { "type": "Point", "coordinates": [ -79.208839657278133, -4.018900355902961 ] } },
{ "type": "Feature", "properties": { "fid": 151, "Nombre": "Eucaliptos" }, "geometry": { "type": "Point", "coordinates": [ -79.250690170162216, -3.99134786753935 ] } },
{ "type": "Feature", "properties": { "fid": 152, "Nombre": "La Florida" }, "geometry": { "type": "Point", "coordinates": [ -79.228553385447839, -3.959721356457631 ] } },
{ "type": "Feature", "properties": { "fid": 153, "Nombre": "PROINJAR" }, "geometry": { "type": "Point", "coordinates": [ -79.23459043961202, -3.957796429238936 ] } },
{ "type": "Feature", "properties": { "fid": 154, "Nombre": "San Lorenzo" }, "geometry": { "type": "Point", "coordinates": [ -79.241628975750473, -3.954263888343873 ] } },
{ "type": "Feature", "properties": { "fid": 155, "Nombre": "Turupamba" }, "geometry": { "type": "Point", "coordinates": [ -79.234956690419793, -3.951706690017796 ] } },
{ "type": "Feature", "properties": { "fid": 156, "Nombre": "Lolita Samaniego" }, "geometry": { "type": "Point", "coordinates": [ -79.25118444973333, -3.95866829453693 ] } },
{ "type": "Feature", "properties": { "fid": 157, "Nombre": "EPOCA" }, "geometry": { "type": "Point", "coordinates": [ -79.212373680327588, -4.010833904921076 ] } },
{ "type": "Feature", "properties": { "fid": 158, "Nombre": "Rosales de Belén" }, "geometry": { "type": "Point", "coordinates": [ -79.222180981243071, -3.9766258389442 ] } },
{ "type": "Feature", "properties": { "fid": 159, "Nombre": "Pitas II" }, "geometry": { "type": "Point", "coordinates": [ -79.213496600996109, -3.97234272543954 ] } },
{ "type": "Feature", "properties": { "fid": 160, "Nombre": "Pitas I" }, "geometry": { "type": "Point", "coordinates": [ -79.214578439190532, -3.970350946052078 ] } },
{ "type": "Feature", "properties": { "fid": 161, "Nombre": "Lotización Camino del Sol" }, "geometry": { "type": "Point", "coordinates": [ -79.218796707693301, -3.958656769738393 ] } },
{ "type": "Feature", "properties": { "fid": 162, "Nombre": "Aguas Hediendas" }, "geometry": { "type": "Point", "coordinates": [ -79.220858937747721, -3.954399111869801 ] } },
{ "type": "Feature", "properties": { "fid": 163, "Nombre": "ELITE" }, "geometry": { "type": "Point", "coordinates": [ -79.212404879169952, -3.977654437878982 ] } },
{ "type": "Feature", "properties": { "fid": 164, "Nombre": "Bolívar Guerrero" }, "geometry": { "type": "Point", "coordinates": [ -79.217427464946155, -4.013745440421066 ] } },
{ "type": "Feature", "properties": { "fid": 165, "Nombre": "Reinaldo Espinoza" }, "geometry": { "type": "Point", "coordinates": [ -79.218577547070595, -4.012374453476031 ] } },
{ "type": "Feature", "properties": { "fid": 166, "Nombre": "Tenería" }, "geometry": { "type": "Point", "coordinates": [ -79.252253696219043, -3.949015324786778 ] } },
{ "type": "Feature", "properties": { "fid": 167, "Nombre": "CISOL" }, "geometry": { "type": "Point", "coordinates": [ -79.251742371536025, -3.952241429864535 ] } },
{ "type": "Feature", "properties": { "fid": 168, "Nombre": "Buenos Aires" }, "geometry": { "type": "Point", "coordinates": [ -79.231024949216803, -3.975247402235148 ] } },
{ "type": "Feature", "properties": { "fid": 169, "Nombre": "Belén Alto" }, "geometry": { "type": "Point", "coordinates": [ -79.232021444334464, -3.980264943348965 ] } },
{ "type": "Feature", "properties": { "fid": 170, "Nombre": "Electricista I" }, "geometry": { "type": "Point", "coordinates": [ -79.202494784537564, -4.023799998664468 ] } },
{ "type": "Feature", "properties": { "fid": 171, "Nombre": "Juan José Castillo" }, "geometry": { "type": "Point", "coordinates": [ -79.215702526249444, -4.027614610021635 ] } },
{ "type": "Feature", "properties": { "fid": 172, "Nombre": "Juan José Castillo" }, "geometry": { "type": "Point", "coordinates": [ -79.218851637480043, -4.027836290289927 ] } },
{ "type": "Feature", "properties": { "fid": 173, "Nombre": "Mina GAD Municipal" }, "geometry": { "type": "Point", "coordinates": [ -79.21907133965874, -4.029789053829239 ] } },
{ "type": "Feature", "properties": { "fid": 174, "Nombre": "SOMEC" }, "geometry": { "type": "Point", "coordinates": [ -79.216070200594899, -4.022003972448873 ] } },
{ "type": "Feature", "properties": { "fid": 175, "Nombre": "UNE" }, "geometry": { "type": "Point", "coordinates": [ -79.218219595535828, -4.022238365033966 ] } },
{ "type": "Feature", "properties": { "fid": 176, "Nombre": "NUEVO AMANECER" }, "geometry": { "type": "Point", "coordinates": [ -79.219631555178168, -4.020817439919386 ] } },
{ "type": "Feature", "properties": { "fid": 177, "Nombre": "COLINAS LOJANAS" }, "geometry": { "type": "Point", "coordinates": [ -79.222575249208049, -4.020219051859 ] } },
{ "type": "Feature", "properties": { "fid": 178, "Nombre": "LA FLORESTA" }, "geometry": { "type": "Point", "coordinates": [ -79.225445724984297, -4.022806039729972 ] } },
{ "type": "Feature", "properties": { "fid": 179, "Nombre": "YAHUARCUNA" }, "geometry": { "type": "Point", "coordinates": [ -79.198458262296398, -4.017585726309473 ] } },
{ "type": "Feature", "properties": { "fid": 180, "Nombre": "TEJAR DE JERICO" }, "geometry": { "type": "Point", "coordinates": [ -79.194771522697593, -4.004711614062963 ] } },
{ "type": "Feature", "properties": { "fid": 181, "Nombre": "COLEGIO DE MEDICOS" }, "geometry": { "type": "Point", "coordinates": [ -79.2198729775711, -3.956398155378636 ] } },
{ "type": "Feature", "properties": { "fid": 182, "Nombre": "COLEGIO DE PERIODISTAS" }, "geometry": { "type": "Point", "coordinates": [ -79.218666557996642, -3.957314278351256 ] } }
]
}
